[
  {
    "name": "Cubbon Park",
    "area": "Central",
    "category": "Nature",
    "budget": "low",
    "avgCost": 0,
    "timeHours": 2,
    "lat": 12.9763,
    "lng": 77.5929,
    "tags": ["park", "morning", "peaceful"]
  },
  {
    "name": "Lalbagh Botanical Garden",
    "area": "South",
    "category": "Nature",
    "budget": "low",
    "avgCost": 120,
    "timeHours": 2,
    "lat": 12.9507,
    "lng": 77.5848,
    "tags": ["garden", "nature", "photography"]
  },
  {
    "name": "Bangalore Palace",
    "area": "Central",
    "category": "Culture",
    "budget": "medium",
    "avgCost": 500,
    "timeHours": 2,
    "lat": 12.9987,
    "lng": 77.5921,
    "tags": ["palace", "history", "architecture"]
  },
  {
    "name": "ISKCON Temple",
    "area": "North",
    "category": "Culture",
    "budget": "low",
    "avgCost": 0,
    "timeHours": 2,
    "lat": 13.0098,
    "lng": 77.5511,
    "tags": ["temple", "spiritual", "peaceful"]
  },
  {
    "name": "Vidhana Soudha",
    "area": "Central",
    "category": "Culture",
    "budget": "low",
    "avgCost": 0,
    "timeHours": 1,
    "lat": 12.9796,
    "lng": 77.5907,
    "tags": ["landmark", "architecture", "government"]
  },
  {
    "name": "Bannerghatta Biological Park",
    "area": "South",
    "category": "Nature",
    "budget": "medium",
    "avgCost": 500,
    "timeHours": 4,
    "lat": 12.8006,
    "lng": 77.5770,
    "tags": ["wildlife", "safari", "zoo"]
  },
  {
    "name": "UB City",
    "area": "Central",
    "category": "Shopping",
    "budget": "high",
    "avgCost": 1500,
    "timeHours": 2,
    "lat": 12.9716,
    "lng": 77.5966,
    "tags": ["luxury", "mall", "dining"]
  },
  {
    "name": "Toit Brewery",
    "area": "East",
    "category": "Food",
    "budget": "medium",
    "avgCost": 1500,
    "timeHours": 2,
    "lat": 12.9786,
    "lng": 77.6408,
    "tags": ["brewery", "nightlife", "pizza"]
  },
  {
    "name": "VV Puram Food Street",
    "area": "South",
    "category": "Food",
    "budget": "low",
    "avgCost": 300,
    "timeHours": 2,
    "lat": 12.9480,
    "lng": 77.5738,
    "tags": ["street food", "local", "vegetarian"]
  }
]
